City_ID,City,Lat,Lng,Max Temp,Humidity,Cloudiness,Wind Speed,Country,Date
0,stanley,54.868,-1.6985,17.5,63,40,4.63,GB,1690284710
1,margaret river,-33.95,115.0667,13.78,80,89,5.29,AU,1690284704
2,waitangi,-43.9535,-176.5597,11.01,98,100,2.68,NZ,1690284711
3,aasiaat,68.7098,-52.8699,3.13,91,97,1.96,GL,1690284712
4,acajutla,13.5928,-89.8275,26.24,76,89,2.22,SV,1690284712
5,bargaal,11.2864,51.0773,36.21,37,28,11.99,SO,1690284712
6,grytviken,-54.2811,-36.5092,-2.56,81,30,5.18,GS,1690284646
7,ushuaia,-54.8,-68.3,-3.19,68,0,1.54,AR,1690284548
8,poronaysk,49.2167,143.1167,15.32,98,64,2.15,RU,1690284713
9,as sulayyil,20.4607,45.5779,45.14,5,40,1.05,SA,1690284713
10,miri,4.4148,114.0089,29.08,84,20,1.54,MY,1690284622
11,berezovyy,51.6667,135.7,18.48,96,100,1.04,RU,1690284714
12,bredasdorp,-34.5322,20.0403,15.63,47,0,2.11,ZA,1690284714
13,bilibino,68.0546,166.4372,11.17,94,100,0.35,RU,1690284716
14,karratha,-20.7377,116.8463,19.96,66,2,4.68,AU,1690284677
15,bethel,41.3712,-73.414,24.16,88,0,1.54,US,1690284716
16,invercargill,-46.4,168.35,6.36,82,90,7.96,NZ,1690284499
17,albany,42.6001,-73.9662,19.41,94,2,0.54,US,1690284531
18,olonkinbyen,70.9221,-8.7187,5.37,87,99,5.2,SJ,1690284717
19,ust-nera,64.5667,143.2,15.72,82,58,2.86,RU,1690284717
20,uturoa,-16.7333,-151.4333,26.47,84,14,6.46,PF,1690284718
21,san patricio,28.017,-97.5169,28.92,90,3,2.3,US,1690284718
22,edinburgh of the seven seas,-37.0676,-12.3116,12.58,85,100,11.63,SH,1690284718
23,santa vitoria do palmar,-33.5189,-53.3681,12.23,92,100,4.98,BR,1690284718
24,port-aux-francais,-49.35,70.2167,3.0,65,93,4.98,TF,1690284719
25,puerto natales,-51.7236,-72.4875,-7.04,94,68,1.43,CL,1690284719
26,khor,47.8861,134.9464,21.43,90,3,2.58,RU,1690284719
27,amahai,-3.3333,128.9167,27.22,85,89,4.04,ID,1690284720
28,iranshahr,27.2025,60.6848,41.19,26,75,3.09,IR,1690284721
29,ad dawadimi,24.5077,44.3924,41.64,6,97,5.81,SA,1690284721
30,garachico,28.7781,-17.7646,24.06,57,20,6.17,ES,1690284721
31,ilulissat,69.2167,-51.1,3.01,100,75,3.09,GL,1690284722
32,baruun-urt,46.6806,113.2792,22.42,46,97,1.22,MN,1690284722
33,pacific grove,36.6177,-121.9166,14.82,93,0,1.34,US,1690284722
34,blackmans bay,-43.0167,147.3167,10.85,79,95,3.17,AU,1690284723
35,tshabong,-26.05,22.45,28.52,15,73,6.24,BW,1690284724
36,adamstown,-25.066,-130.1015,21.21,81,97,9.44,PN,1690284724
37,port mathurin,-19.6833,63.4167,23.74,74,18,7.63,MU,1690284724
38,puerto ayora,-0.7393,-90.3518,24.19,98,92,1.79,EC,1690284725
39,clarinda,40.7419,-95.0383,23.18,100,0,0.0,US,1690284725
40,remire-montjoly,4.9167,-52.2667,24.02,100,75,1.03,GF,1690284726
41,thompson,55.7435,-97.8558,9.09,100,40,2.06,CA,1690284726
42,saint-philippe,-21.3585,55.7679,24.77,82,26,2.75,RE,1690284728
43,klyuchi,52.2667,79.1667,27.68,27,96,6.59,RU,1690284728
44,iqaluit,63.7506,-68.5145,7.85,87,75,3.6,CA,1690284728
45,talnakh,69.4865,88.3972,23.45,40,32,4.01,RU,1690284728
46,votkinsk,57.0486,53.9872,24.87,44,51,3.76,RU,1690284576
47,marsh harbour,26.5412,-77.0636,29.15,71,98,3.73,BS,1690284730
48,kamloops,50.6665,-120.3192,13.55,70,20,1.54,CA,1690284730
49,abashiri,44.0213,144.2697,25.16,94,40,0.51,JP,1690284520
50,enewetak,11.3474,162.3373,28.36,81,50,7.92,MH,1690284730
51,al hasakah,36.5024,40.7477,40.82,10,0,6.55,SY,1690284731
52,yellowknife,62.456,-114.3525,19.29,63,100,5.14,CA,1690284731
53,cangucu,-31.395,-52.6756,12.56,98,100,4.14,BR,1690284731
54,portland,45.5234,-122.6762,18.94,84,100,2.57,US,1690284731
55,whitehorse,60.7161,-135.0538,14.43,81,100,4.02,CA,1690284732
56,hengchun,22.0042,120.7439,28.41,78,100,15.13,TW,1690284704
57,woolgoolga,-30.1106,153.2007,14.93,73,9,3.53,AU,1690284732
58,tiksi,71.6872,128.8694,4.44,77,68,2.26,RU,1690284733
59,lebu,-37.6167,-73.65,10.21,83,71,5.71,CL,1690284733
60,viedma,-40.8135,-62.9967,5.52,73,97,8.64,AR,1690284733
61,la passe,45.5549,-0.8967,22.13,53,46,7.86,FR,1690284734
62,luderitz,-26.6481,15.1594,15.39,68,23,2.85,NA,1690284610
63,hamilton,39.1834,-84.5333,20.03,95,0,1.54,US,1690284734
64,wailua homesteads,22.0669,-159.378,25.44,90,100,5.66,US,1690284735
65,afaahiti,-17.75,-149.2833,25.93,82,6,6.96,PF,1690284735
66,chonchi,-42.6128,-73.8092,7.84,96,97,2.47,CL,1690284736
67,papatowai,-46.5619,169.4708,5.99,88,66,8.97,NZ,1690284736
68,longyearbyen,78.2186,15.6401,10.91,71,40,2.06,SJ,1690284737
69,mendoza,-32.8908,-68.8272,1.74,69,0,0.0,AR,1690284737
70,hithadhoo,-0.6,73.0833,28.4,77,79,7.19,MV,1690284608
71,badger,64.8,-147.5333,19.17,85,0,0.0,US,1690284737
72,haiku-pauwela,20.9219,-156.3051,24.03,75,0,5.66,US,1690284738
73,tidjikja,18.5564,-11.4271,37.64,22,73,5.36,MR,1690284738
74,sur,22.5667,59.5289,28.12,86,100,1.3,OM,1690284739
75,polyarnyy,69.1989,33.4478,10.54,92,100,3.13,RU,1690284740
76,merritt island,28.5392,-80.672,26.66,86,0,2.06,US,1690284740
77,calama,-22.4667,-68.9333,11.01,14,0,2.53,CL,1690284740
78,mount pearl,47.5166,-52.7813,22.96,82,75,5.66,CA,1690284741
79,wewak,-3.5534,143.6268,25.72,90,100,6.21,PG,1690284741
80,port alfred,-33.5906,26.891,18.43,64,0,0.89,ZA,1690284741
81,ponta delgada,37.7333,-25.6667,22.4,83,40,2.57,PT,1690284741
82,tumayr,25.7039,45.868,43.82,5,100,2.19,SA,1690284742
83,chandler,33.3062,-111.8412,34.82,38,0,3.09,US,1690284743
84,nar'yan-mar,67.6713,53.087,21.16,60,50,3.69,RU,1690284743
85,tura,25.5198,90.2201,27.61,85,90,0.89,IN,1690284743
86,dhana,23.75,78.85,30.17,71,92,1.84,IN,1690284744
87,brejo santo,-7.4933,-38.9872,24.13,67,63,3.74,BR,1690284744
88,bisert',56.8617,59.0523,22.98,42,54,4.04,RU,1690284744
89,roxas,11.5853,122.7511,25.08,87,100,6.68,PH,1690284368
90,port saint john's,-31.6229,29.5448,20.81,48,18,5.54,ZA,1690284745
91,agat village,13.3886,144.6585,27.52,94,75,6.69,GU,1690284745
92,jamestown,42.097,-79.2353,18.73,91,0,2.06,US,1690284634
93,alegrete,-29.7831,-55.7919,13.59,95,100,3.43,BR,1690284747
94,garoua boulai,5.8833,14.55,24.07,81,49,1.48,CM,1690284747
95,licheng,23.2955,113.8284,30.68,60,24,1.04,CN,1690284748
96,bahraigh,27.5833,81.6,32.87,59,96,4.26,IN,1690284748
97,peace river,56.2501,-117.286,14.17,100,100,2.06,CA,1690284748
98,quelimane,-17.8786,36.8883,25.97,57,40,5.14,MZ,1690284748
99,qaqortoq,60.7167,-46.0333,6.6,89,100,1.96,GL,1690284749
100,'ali al gharbi,32.4633,46.6864,46.79,5,0,7.8,IQ,1690284749
101,ribeira grande,38.5167,-28.7,23.76,68,20,4.63,PT,1690284749
102,hawaiian paradise park,19.5933,-154.9731,22.73,99,100,4.12,US,1690284750
103,georgetown,5.4112,100.3354,30.97,73,20,2.24,MY,1690284750
104,waingapu,-9.6567,120.2641,22.87,80,87,4.97,ID,1690284750
105,isafjordur,66.0755,-23.124,11.02,76,75,3.6,IS,1690284750
106,leh,34.1667,77.5833,20.86,41,94,2.95,IN,1690284525
107,vilyuchinsk,52.9306,158.4028,17.15,80,13,2.93,RU,1690284751
108,jalarpet,12.5667,78.5833,24.03,78,100,6.37,IN,1690284751
109,rovaniemi,66.5,25.7167,16.67,72,100,3.09,FI,1690284751
110,sao felix do xingu,-6.6447,-51.995,26.47,44,4,0.98,BR,1690284752
111,djenne,13.9061,-4.5533,34.29,42,14,2.33,ML,1690284752
112,moroni,-11.7022,43.2551,29.0,65,40,6.69,KM,1690284753
113,kone,-21.0595,164.8658,17.72,84,95,2.68,NC,1690284753
114,hermanus,-34.4187,19.2345,18.22,52,0,2.33,ZA,1690284753
115,mata-utu,-13.2816,-176.1745,26.79,73,99,8.3,WF,1690284753
116,ta`u,-14.2336,-169.5144,25.71,70,13,5.53,AS,1690284754
117,iskateley,67.6803,53.1512,20.97,60,49,3.56,RU,1690284754
118,palembang,-2.9167,104.7458,30.05,70,20,3.09,ID,1690284442
119,birecik,37.0294,37.9903,38.56,16,0,3.26,TR,1690284755
120,pampa,35.5362,-100.9599,25.53,31,62,7.39,US,1690284755
121,oyem,1.5995,11.5793,26.37,71,83,1.2,GA,1690284755
122,shindand,33.3029,62.1474,38.77,12,3,3.79,AF,1690284755
123,lugus,5.7036,120.8203,28.32,83,87,6.55,PH,1690284756
124,alice springs,-23.7,133.8833,10.75,54,0,2.57,AU,1690284756
125,ma'rib,15.4591,45.3253,40.05,8,90,5.97,YE,1690284757
126,las khorey,11.1595,48.1967,35.74,46,57,1.02,SO,1690284757
127,caluula,11.9661,50.7569,30.15,68,44,6.53,SO,1690284757
128,keflavik,64.0049,-22.5624,13.26,82,100,1.54,IS,1690284757
129,fale old settlement,-9.3852,-171.2468,28.86,74,4,8.69,TK,1690284758
130,kalevala,65.2,31.1667,12.62,95,100,2.63,RU,1690284758
131,baxter,46.3433,-94.2867,18.9,94,100,0.0,US,1690284759
132,puerto aysen,-45.4,-72.7,0.81,99,99,0.39,CL,1690284759
133,san andres,12.5847,-81.7006,28.01,83,40,7.72,CO,1690284759
134,constantia,44.1833,28.65,37.61,53,4,12.53,RO,1690284760
135,filadelfia,39.9523,-75.1638,23.42,91,40,2.06,US,1690284544
136,port elizabeth,-33.918,25.5701,20.61,42,0,3.09,ZA,1690284761
137,west island,-12.1568,96.8225,24.99,73,75,8.23,CC,1690284761
138,fiambala,-27.6871,-67.6149,11.69,34,51,1.23,AR,1690284761
139,belmonte,-15.8631,-38.8828,22.32,86,90,2.74,BR,1690284761
140,qinggang,46.6833,126.0833,21.79,83,14,2.71,CN,1690284762
141,east london,-33.0153,27.9116,17.52,55,0,3.09,ZA,1690284763
142,namtsy,62.7161,129.6658,18.97,54,5,3.16,RU,1690284763
143,dolores,-36.3132,-57.6792,6.18,92,30,2.93,AR,1690284763
144,macau,22.2006,113.5461,32.89,74,20,4.63,MO,1690284456
145,bardai,11.65,7.2333,30.6,50,7,3.61,NG,1690284764
146,twon-brass,4.3151,6.2418,26.46,79,84,4.33,NG,1690284765
147,tubarjal,30.4999,38.216,39.41,10,0,5.54,SA,1690284765
148,bang saphan,11.2126,99.5117,26.54,85,97,2.62,TH,1690284765
149,punta umbria,37.1821,-6.9661,28.46,29,0,4.98,ES,1690284766
150,garissa,-0.4536,39.6401,30.99,42,70,10.64,KE,1690284766
151,esmeraldas,-19.7625,-44.3139,17.58,59,0,3.1,BR,1690284766
152,xining,36.6167,101.7667,16.47,72,78,2.98,CN,1690284639
153,lusambo,-4.9667,23.45,40.47,14,58,1.18,CD,1690284767
154,kuqa,41.7278,82.9364,35.03,19,98,7.22,CN,1690284767
155,san borja,-14.8167,-66.85,22.11,71,49,0.74,BO,1690284470
156,avarua,-21.2078,-159.775,21.03,78,100,1.03,CK,1690284752
157,khanpur mahar,27.8436,69.4137,37.38,45,99,2.53,PK,1690284768
158,ma'an,26.9775,110.7211,26.97,85,99,2.69,CN,1690284768
159,utrik,11.2278,169.8474,28.34,75,98,8.59,MH,1690284768
160,flying fish cove,-10.4217,105.6791,24.82,83,75,3.09,CX,1690284769
161,adzope,6.1069,-3.8619,26.69,82,100,1.18,CI,1690284769
162,khandyga,62.6667,135.6,17.97,95,39,3.09,RU,1690284769
163,stonehaven,56.9637,-2.2118,16.5,62,98,4.01,GB,1690284770
164,siocon,7.7061,122.1353,26.55,86,99,4.01,PH,1690284770
165,nicoya,10.1483,-85.452,24.14,87,78,4.16,CR,1690284770
166,tsiombe,-25.3,45.4833,19.95,63,85,6.21,MG,1690284771
167,acu,-5.5767,-36.9086,29.03,48,55,5.42,BR,1690284771
168,umea,63.8284,20.2597,15.96,72,75,2.06,SE,1690284771
169,mezhdurechenskiy,59.6,65.9333,24.54,45,44,3.42,RU,1690284772
170,punta arenas,-53.15,-70.9167,-3.27,92,48,2.79,CL,1690284772
171,bikenibeu village,1.3673,173.1241,25.98,94,75,0.0,KI,1690284772
172,palikir - national government center,6.9248,158.1611,25.41,94,100,2.57,FM,1690284773
173,atafu village,-8.5421,-172.5159,29.15,74,13,9.66,TK,1690284773
174,jining,35.405,116.5814,30.21,61,11,2.78,CN,1690284773
175,filipstad,59.7124,14.1683,16.94,76,95,3.54,SE,1690284774
176,kodiak,57.79,-152.4072,6.73,93,0,2.57,US,1690284774
177,nagqu,31.5,92.0,11.34,73,97,1.42,CN,1690284740
178,tyukhtet,56.5389,89.3011,23.37,66,98,2.28,RU,1690284775
179,namibe,-15.1961,12.1522,20.35,77,100,5.14,AO,1690284775
180,tateyama,34.9833,139.8667,25.65,89,10,4.5,JP,1690284707
181,alamogordo,32.8995,-105.9603,27.23,29,0,6.17,US,1690284776
182,aykhal,66.0,111.5,20.32,62,99,3.44,RU,1690284776
183,oranjemund,-28.55,16.4333,18.96,42,4,3.75,NA,1690284607
184,okha,53.5739,142.9478,11.01,97,62,5.04,RU,1690284777
185,vorkuta,67.5,64.0,19.15,78,100,2.93,RU,1690284778
186,ocala,29.1872,-82.1401,23.99,89,0,1.54,US,1690284778
187,lycksele,64.5954,18.6735,14.93,77,75,2.57,SE,1690284779
188,jiazi,22.8779,116.067,27.88,82,50,0.64,CN,1690284779
189,san julian,21.0167,-102.1667,12.14,91,100,0.57,MX,1690284780
190,manokwari,-0.8667,134.0833,27.46,79,98,1.46,ID,1690284780
191,cabedelo,-6.9811,-34.8339,24.37,66,70,6.96,BR,1690284780
192,taltal,-25.4,-70.4833,14.01,84,70,0.62,CL,1690284781
193,pisco,-13.7,-76.2167,15.03,82,13,0.51,PE,1690284782
194,dunedin,-45.8742,170.5036,6.56,71,72,6.71,NZ,1690284608
195,shilin,24.8188,103.3324,21.93,70,97,2.55,CN,1690284782
196,kuanda,56.3161,116.0806,20.11,77,57,2.58,RU,1690284783
197,ngerengere,-6.75,38.1167,32.53,28,11,4.58,TZ,1690284783
198,okhotsk,59.3833,143.3,14.75,85,73,4.04,RU,1690284783
199,nema,57.5067,50.5011,18.64,85,93,3.92,RU,1690284784
200,nizhnesortymskiy,62.4397,71.7603,17.82,83,100,3.04,RU,1690284784
201,nuuk,64.1835,-51.7216,10.34,57,0,4.12,GL,1690284784
202,challapata,-18.9,-66.7667,3.72,25,0,1.7,BO,1690284785
203,holualoa,19.6228,-155.9522,26.04,86,0,4.12,US,1690284785
204,annaka,36.3167,138.9,27.96,53,19,1.18,JP,1690284691
205,saipan,15.1355,145.701,28.39,100,20,5.66,MP,1690284786
206,purepero de echaiz,19.9167,-102.0167,13.82,97,100,1.1,MX,1690284786
207,hasaki,35.7333,140.8333,27.39,86,100,5.55,JP,1690284731
208,san ignacio rio muerto,27.4167,-110.2333,29.56,72,61,2.45,MX,1690284787
209,alofi,-19.0595,-169.9187,16.94,94,8,0.0,NU,1690284787
210,tarauaca,-8.1614,-70.7656,22.79,71,50,0.47,BR,1690284788
211,changde,29.0464,111.6783,25.99,89,100,1.18,CN,1690284788
212,trujillo,-8.116,-79.03,20.98,88,75,3.09,PE,1690284788
213,newman,37.3138,-121.0208,20.72,74,3,0.45,US,1690284789
214,muisne,0.6,-80.0333,24.95,87,100,4.17,EC,1690284789
215,choibalsan,48.0667,114.5,23.64,42,89,1.49,MN,1690284790
216,quellon,-43.1167,-73.6167,8.14,93,100,5.66,CL,1690284790
217,chagny,46.9095,4.7519,22.03,64,93,7.86,FR,1690284791
218,gadzhiyevo,69.2551,33.3362,10.09,93,100,3.51,RU,1690284791
219,borborema,-21.6197,-49.0736,22.09,41,82,3.16,BR,1690284792
220,saint-joseph,-21.3667,55.6167,24.71,78,15,0.81,RE,1690284792
221,yabelo,4.8833,38.0833,20.3,54,95,2.52,ET,1690284792
222,campanario,38.8644,-5.6174,29.1,22,0,3.24,ES,1690284792
223,vernon,50.2581,-119.2691,13.58,83,76,1.54,CA,1690284793
224,laboulaye,-34.1266,-63.3912,5.5,92,99,4.38,AR,1690284793
225,yermentau,51.6214,73.1069,27.76,25,78,4.38,KZ,1690284793
226,castillos,-34.1667,-53.8333,11.11,93,100,3.52,UY,1690284794
227,concord,37.978,-122.0311,18.06,75,0,4.92,US,1690284794
228,vorozhba,51.1733,34.2192,28.77,46,62,6.52,UA,1690284794
229,cestos city,5.46,-9.5828,26.59,81,96,4.98,LR,1690284795
230,tofol,5.3248,163.0078,28.68,76,100,5.54,FM,1690284795
231,college,64.8569,-147.8028,19.21,83,40,0.0,US,1690284795
232,goure,13.9835,10.2704,35.14,33,16,5.13,NE,1690284796
233,sitka,57.0531,-135.33,12.94,88,75,0.0,US,1690284796
234,kaitong,44.8135,123.15,25.02,71,29,2.21,CN,1690284754
235,kununurra,-15.7667,128.7333,15.99,41,3,2.06,AU,1690284730
236,baracoa,20.3467,-74.4958,27.76,83,100,3.84,CU,1690284797
237,laojunmiao,39.8333,97.7333,27.49,17,18,5.76,CN,1690284797
238,chinchilla,-26.75,150.6333,10.96,73,0,5.13,AU,1690284798
239,tual,-5.6667,132.75,24.96,76,99,10.32,ID,1690284798
240,tabou,4.423,-7.3528,26.55,81,100,4.94,CI,1690284799
241,tazovsky,67.4667,78.7,21.59,49,34,5.23,RU,1690284800
242,kamyzyak,46.11,48.0736,25.99,57,40,4.0,RU,1690284502
243,cadale,2.7603,46.3222,26.75,73,66,10.42,SO,1690284801
244,sao vicente,-23.9631,-46.3919,24.04,100,0,0.0,BR,1690284802
245,brokopondo,4.75,-55.1667,25.97,85,64,1.97,SR,1690284802
246,magadan,59.5667,150.8,16.41,88,14,1.76,RU,1690284803
247,tolanaro,-25.0319,46.9987,23.04,68,40,9.26,MG,1690284803
248,uporovo,56.3109,66.2693,25.04,48,50,3.81,RU,1690284804
249,lagos,6.5833,3.75,28.18,63,53,3.47,NG,1690284804
250,puerto ayacucho,5.6639,-67.6236,24.13,93,73,1.67,VE,1690284805
251,sandnessjoen,66.0217,12.6316,22.29,64,20,2.57,NO,1690284805
252,dryden,49.7833,-92.7503,16.16,72,100,2.57,CA,1690284806
253,hobyo,5.3505,48.5268,27.56,66,79,14.52,SO,1690284806
254,la ronge,55.1001,-105.2842,16.14,88,0,3.6,CA,1690284807
255,minot,48.2325,-101.2963,24.12,73,0,7.2,US,1690284540
256,oblivskaya,48.5362,42.5014,31.49,29,5,3.79,RU,1690284807
257,vetluzhskiy,58.3902,45.4654,18.73,80,78,2.34,RU,1690284808
258,menongue,-14.6585,17.691,30.01,13,4,3.34,AO,1690284808
259,barabai,-2.5833,115.3833,26.02,75,97,1.59,ID,1690284809
260,nadym,65.5333,72.5167,21.91,69,100,5.58,RU,1690284809
261,naeso,35.2497,128.52,25.6,94,0,0.0,KR,1690284809
262,santa elena de uairen,4.6167,-61.1333,21.19,87,84,0.27,VE,1690284810
263,tazacorte,28.629,-17.9293,25.54,78,20,6.17,ES,1690284810
264,anadyr,64.75,177.4833,10.28,81,40,2.0,RU,1690284811
265,temerluh,3.4506,102.4176,30.55,83,100,0.45,MY,1690284811
266,loushanguan,28.1375,106.82,23.41,93,99,0.89,CN,1690284812
267,geraldton,-28.7667,114.6,16.23,63,100,4.12,AU,1690284812
268,tsumeb,-19.2333,17.7167,27.66,11,86,5.08,NA,1690284812
269,lethbridge,49.7,-112.8186,22.81,35,100,2.06,CA,1690284813
270,sinabang,2.4803,96.3801,27.76,76,22,2.38,ID,1690284813
271,taunggyi,20.7833,97.0333,22.49,85,93,1.11,MM,1690284587
272,coquimbo,-29.9533,-71.3436,10.85,93,0,4.63,CL,1690284814
273,laguna,38.421,-121.4238,21.16,71,0,3.09,US,1690284814
274,bandar-e genaveh,29.5791,50.517,39.01,41,8,5.53,IR,1690284815
275,labrador city,52.9463,-66.9114,17.95,72,75,1.03,CA,1690284815
276,kingston,17.997,-76.7936,27.53,84,20,1.03,JM,1690284815
277,cantemir,46.2781,28.2008,39.1,19,12,7.38,MD,1690284815
278,guider,9.9342,13.9486,36.42,32,18,3.48,CM,1690284816
279,sakaiminato,35.55,133.2333,28.96,89,40,1.54,JP,1690284805
280,tarawa,1.419,172.984,26.05,94,75,0.0,KI,1690284817
281,kailua-kona,19.6406,-155.9956,28.11,90,0,4.12,US,1690284817
282,faya-largeau,17.9257,19.1043,43.94,10,0,8.23,TD,1690284817
283,kapa'a,22.0752,-159.319,26.18,90,100,5.66,US,1690284818
284,fort bragg,35.139,-79.006,24.34,97,0,1.54,US,1690284818
285,red hill,33.9996,-79.2581,25.51,83,71,1.51,US,1690284818
286,buinsk,54.95,48.2833,24.59,48,82,5.73,RU,1690284819
287,monteagudo,-19.8167,-63.9833,13.46,72,100,0.73,BO,1690284819
288,palmas,-10.2128,-48.3603,25.93,47,0,2.06,BR,1690284820
289,cooper's town,26.8667,-77.5167,28.92,72,88,3.2,BS,1690284820
290,sasovo,54.3537,41.9199,22.46,73,94,4.93,RU,1690284821
291,ghat,24.9647,10.1728,40.2,9,4,7.12,LY,1690284822
292,mount isa,-20.7333,139.5,17.87,55,40,4.12,AU,1690284822
293,floro,61.5996,5.0328,16.04,82,75,5.14,NO,1690284822
294,nyurba,63.2842,118.3319,21.87,75,49,2.31,RU,1690284823
295,dudinka,69.4058,86.1778,23.68,47,0,7.08,RU,1690284824
296,baiti,13.745,-14.7482,32.54,56,68,1.93,SN,1690284824
297,yilan,24.757,121.753,30.31,93,66,3.58,TW,1690284663
298,susuman,62.7833,148.1667,15.24,83,96,2.25,RU,1690284825
299,ancud,-41.8697,-73.8203,9.18,89,96,9.28,CL,1690284825
300,walvis bay,-22.9575,14.5053,13.38,70,74,4.8,NA,1690284825
301,hirara,24.8,125.2833,29.92,84,75,8.23,JP,1690284826
302,tibagi,-24.5094,-50.4136,17.79,62,3,0.56,BR,1690284826
303,katsuren-haebaru,26.3369,127.8719,30.78,70,47,7.89,JP,1690284716
304,betare oya,5.6,14.0833,25.43,82,74,2.37,CM,1690284827
305,queenstown,-31.8976,26.8753,17.76,12,81,2.76,ZA,1690284425
306,majuro,7.0897,171.3803,27.98,83,75,1.54,MH,1690284827
307,opuwo,-18.0607,13.84,29.57,13,74,5.64,NA,1690284827
308,mogocha,53.7333,119.7667,16.34,98,92,1.7,RU,1690284828
309,divnomorskoye,44.5011,38.1353,27.13,54,2,4.08,RU,1690284828
310,gryazovets,58.88,40.2525,19.78,54,41,2.09,RU,1690284828
311,sinop,41.7711,34.8709,22.24,48,0,3.9,TR,1690284829
312,villa nueva,14.5269,-90.5875,18.01,94,40,5.14,GT,1690284626
313,cannonvale,-20.2833,148.7,21.66,77,84,9.83,AU,1690284829
314,bovril,-31.3431,-59.4451,9.39,91,100,4.74,AR,1690284830
315,kamaishi,39.2667,141.8833,24.81,82,50,1.75,JP,1690284729
316,minas de marcona,-15.2119,-75.1103,11.4,89,30,6.27,PE,1690284830
317,akureyri,65.6835,-18.0878,8.96,87,100,3.09,IS,1690284830
318,belyy yar,53.6039,91.3903,26.94,44,0,2.0,RU,1690284831
319,louisville,38.2542,-85.7594,20.29,93,0,1.54,US,1690284644
320,champerico,14.3,-91.9167,25.88,81,100,2.71,GT,1690284831
321,sibiti,-3.6819,13.3499,32.05,37,24,2.05,CG,1690284832
322,kerikeri,-35.2268,173.9474,11.06,91,61,0.45,NZ,1690284832
323,aflou,34.1128,2.1023,36.03,8,4,6.66,DZ,1690284832
324,katsuura,35.1333,140.3,25.27,90,38,4.42,JP,1690284729
325,sidi ifni,29.3797,-10.173,24.86,73,47,3.07,MA,1690284833
326,korsakov,46.6328,142.7813,20.91,96,6,3.41,RU,1690284833
327,jaguaruna,-28.615,-49.0256,22.91,84,71,2.41,BR,1690284833
328,freetown,8.484,-13.2299,24.84,94,75,4.12,SL,1690284834
329,codrington,-38.2667,141.9667,8.43,87,39,1.82,AU,1690284834
330,energetik,51.7445,58.7934,27.44,36,100,1.83,RU,1690284834
331,kourou,5.1552,-52.6478,24.03,85,49,2.2,GF,1690284834
332,gaspe,48.8334,-64.4819,20.95,88,40,1.54,CA,1690284835
333,kristiansund,63.1115,7.732,16.03,77,75,6.17,NO,1690284835
334,salahonda,2.1019,-78.7217,26.89,83,99,6.42,CO,1690284835
335,anloga,5.7947,0.8973,26.61,81,99,4.85,GH,1690284835
336,narimanov,46.6927,47.8498,25.95,44,67,3.71,RU,1690284836
337,chibougamau,49.9168,-74.3659,12.79,100,0,2.29,CA,1690284836
338,smithers,54.7804,-127.1743,12.18,94,100,1.03,CA,1690284836
339,kenora,49.8167,-94.4337,17.54,82,75,3.09,CA,1690284837
340,carnarvon,-24.8667,113.6333,18.67,91,100,6.68,AU,1690284837
341,lorengau,-2.0226,147.2712,25.47,91,100,6.07,PG,1690284837
342,vadso,70.0744,29.7487,11.09,93,100,6.17,NO,1690284838
343,praia da vitoria,38.7333,-27.0667,23.2,88,75,4.38,PT,1690284838
344,levuka,50.1834,-105.4011,18.9,94,75,1.54,CA,1690284838
345,trairi,-3.2778,-39.2689,28.68,51,17,5.59,BR,1690284839
346,ha'il,27.5219,41.6907,41.01,9,0,3.09,SA,1690284839
347,turpan,42.9333,89.1667,43.81,8,15,2.14,CN,1690284840
348,christchurch,-43.5333,172.6333,7.17,89,20,3.6,NZ,1690284600
349,bandarbeyla,9.4942,50.8122,29.69,54,4,14.96,SO,1690284840
350,dangriga,16.9692,-88.2321,27.3,84,22,5.37,BZ,1690284841
351,kanggye,40.9695,126.5852,22.24,96,96,1.1,KP,1690284842
352,maine soroa,13.2114,12.0241,35.78,31,34,4.8,NE,1690284842
353,ribeira brava,32.65,-17.0667,24.84,76,14,0.24,PT,1690284843
354,vorgashor,67.5833,63.95,19.21,75,100,3.03,RU,1690284843
355,zhumysker,49.3333,49.4,30.83,27,100,3.99,KZ,1690284844
356,labytnangi,66.6572,66.4183,23.96,60,100,4.15,RU,1690284844
357,tvoroyri,61.5556,-6.8111,9.6,80,94,2.8,FO,1690284845
358,crane,31.3974,-102.3501,24.37,65,0,4.19,US,1690284845
359,chekmagush,55.1319,54.6556,25.45,40,36,2.81,RU,1690284846
360,colonia,50.9333,6.95,19.9,61,20,4.63,DE,1690284781
361,edson,53.5835,-116.4356,14.08,100,100,1.54,CA,1690284847
362,pandan,14.0453,124.1694,27.64,80,100,9.21,PH,1690284847
363,yuzhno-kurilsk,44.0306,145.8556,19.58,96,18,0.32,RU,1690284848
364,lihue,21.9789,-159.3672,25.77,87,100,5.66,US,1690284848
365,bezhetsk,57.7851,36.6965,21.92,47,22,2.8,RU,1690284848
366,nova sintra,14.8667,-24.7167,22.52,83,64,6.91,CV,1690284849
367,morondava,-20.2833,44.2833,24.89,53,0,9.25,MG,1690284849
368,hadibu,12.65,54.0333,27.37,65,28,11.29,YE,1690284850
369,ola,59.5833,151.2833,16.75,89,33,1.71,RU,1690284850
370,pauini,-7.7136,-66.9764,22.84,58,10,0.33,BR,1690284851
371,heroica caborca,30.7167,-112.15,32.38,35,41,1.26,MX,1690284851
372,dodge city,37.7528,-100.0171,25.14,54,0,4.63,US,1690284611
373,iringa,-7.7667,35.7,23.62,33,40,2.06,TZ,1690284852
374,port augusta,-32.5,137.7667,9.93,72,0,1.7,AU,1690284852
375,kavieng,-2.5744,150.7967,25.19,89,98,2.41,PG,1690284852
376,st. john's,47.5649,-52.7093,23.42,82,75,5.66,CA,1690284853
377,kalabo,-14.97,22.6814,30.85,13,0,3.03,ZM,1690284853
378,pariaman,-0.619,100.12,30.03,79,39,0.8,ID,1690284854
379,corinto,37.9407,22.9573,33.83,22,0,1.71,GR,1690284854
380,baglung,28.2719,83.5898,24.76,88,100,1.83,NP,1690284855
381,puerto deseado,-47.7503,-65.8938,4.41,97,100,2.21,AR,1690284856
382,grand falls-windsor,48.9332,-55.6649,22.5,79,89,0.45,CA,1690284856
383,umka,44.6781,20.3047,36.04,52,0,3.6,RS,1690284857
384,loango,-4.6719,11.8312,24.81,69,20,3.09,CG,1690284858
385,bima,-8.4667,118.7167,22.48,89,79,2.43,ID,1690284745
386,kaa-khem,51.6833,94.7333,22.48,43,98,2.58,RU,1690284859
387,arteche,12.2645,125.4048,26.79,79,100,6.83,PH,1690284859
388,sinan,34.8262,126.1086,28.06,88,99,3.94,KR,1690284860
389,carolina beach,34.0352,-77.8936,26.12,92,58,2.24,US,1690284861
390,richards bay,-28.783,32.0377,20.7,52,97,3.98,ZA,1690284861
391,baiyin,36.5583,104.2081,30.31,26,41,5.8,CN,1690284862
392,novyy urengoy,66.0833,76.6333,25.87,47,84,3.49,RU,1690284862
393,kapuskasing,49.4169,-82.4331,11.0,87,40,1.54,CA,1690284862
394,the pas,53.8251,-101.2541,13.01,88,0,1.54,CA,1690284863
395,selfoss,63.9331,-20.9971,13.91,79,100,1.94,IS,1690284863
396,gamba,-2.65,10.0,24.73,73,77,3.93,GA,1690284864
397,santiago de cuba,20.0247,-75.8219,25.06,83,40,2.57,CU,1690284864
398,saint-paul,-21.0096,55.2707,26.05,87,9,0.45,RE,1690284864
399,mukalla,14.5425,49.1242,35.35,51,84,10.35,YE,1690284866
400,lazaro cardenas,17.9583,-102.2,24.87,88,89,2.52,MX,1690284866
401,penzance,50.1186,-5.5371,19.87,77,20,5.66,GB,1690284866
402,oamaru,-45.0784,170.9801,6.88,71,39,9.63,NZ,1690284867
403,kyaikkami,16.08,97.5675,25.9,84,99,3.44,MM,1690284867
404,yarmouth,41.7057,-70.2286,23.89,94,0,1.54,US,1690284868
405,aripuana,-9.1667,-60.6333,24.13,50,5,1.14,BR,1690284868
406,san antonio de pale,-1.4014,5.6325,23.18,81,14,3.4,GQ,1690284868
407,tinghir,31.5157,-5.5343,37.55,11,0,5.78,MA,1690284869
408,liwale,-9.7667,37.9333,31.63,18,20,4.17,TZ,1690284869
409,kondratovo,57.9804,56.1066,23.16,49,40,4.02,RU,1690284870
410,bhamo,24.2667,97.2333,26.64,95,92,0.9,MM,1690284870
411,stephenville,32.2207,-98.2023,25.48,71,0,1.54,US,1690284870
412,tayu,-6.5397,111.0518,26.06,84,20,3.22,ID,1690284871
413,touros,-5.1989,-35.4608,27.69,62,69,7.8,BR,1690284871
414,la'ie,21.6477,-157.9253,25.98,79,80,7.27,US,1690284872
415,nuku'alofa,-21.1333,-175.2,18.19,94,40,1.54,TO,1690284872
416,ulladulla,-35.35,150.4667,9.5,90,1,2.25,AU,1690284855
417,kelso,46.1468,-122.9084,16.98,92,75,0.0,US,1690284838
418,port-vila,-17.7338,168.3219,19.78,94,100,3.6,VU,1690284814
419,hilo,19.7297,-155.09,28.49,94,100,4.12,US,1690284873
420,banda aceh,5.5577,95.3222,28.31,76,74,6.4,ID,1690284705
421,amga,60.8953,131.9608,17.81,86,99,1.11,RU,1690284874
422,labuan,5.2767,115.2417,28.2,83,20,1.03,MY,1690284704
423,petropavlovsk-kamchatsky,53.0452,158.6483,16.33,77,75,2.0,RU,1690284874
424,fort mcmurray,56.7268,-111.381,18.73,100,100,3.6,CA,1690284875
425,natal,-5.795,-35.2094,26.12,73,20,5.66,BR,1690284875
426,jalai nur,49.45,117.7,21.65,63,37,1.17,CN,1690284875
427,visakhapatnam,17.69,83.2093,26.94,100,100,3.6,IN,1690284453
428,beli,7.8587,10.9719,28.82,74,67,2.41,NG,1690284876
429,peniche,39.3558,-9.3811,24.6,71,0,8.15,PT,1690284876
430,fortuna,40.5982,-124.1573,15.52,96,100,1.54,US,1690284877
431,porto de moz,-1.7483,-52.2383,27.57,56,42,1.06,BR,1690284877
432,awjilah,29.1081,21.2869,41.67,13,0,6.39,LY,1690284877
433,bandar,2.05,99.75,26.35,80,99,0.77,ID,1690284878
434,camabatela,-8.1881,15.375,32.53,13,30,0.88,AO,1690284651
435,balykshi,47.0667,51.8667,22.0,94,75,4.0,KZ,1690284878
436,lauro de freitas,-12.8944,-38.3272,26.01,73,75,3.6,BR,1690284864
437,vytegra,61.0064,36.4481,18.7,63,98,1.19,RU,1690284879
438,rumonge,-3.9736,29.4386,28.43,53,29,2.47,BI,1690284748
439,vilyuysk,63.7553,121.6247,19.22,59,29,2.51,RU,1690284880
440,fisterra,42.9049,-9.2629,20.97,68,50,6.96,ES,1690284880
441,saint-francois,46.4154,3.9054,18.15,68,75,5.14,FR,1690284880
442,acucena,-19.0731,-42.5464,15.29,61,0,1.18,BR,1690284881
443,zeya,53.75,127.2667,17.99,71,41,1.94,RU,1690284881
444,santana,-0.0583,-51.1817,26.1,94,40,2.06,BR,1690284882
445,vahdat,38.5563,69.0135,39.41,16,20,3.0,TJ,1690284882
446,mejit,10.2753,170.8646,28.3,75,99,7.58,MH,1690284882
447,yemva,62.59,50.8594,19.83,63,58,3.57,RU,1690284883
448,naze,28.3667,129.4833,27.51,85,84,5.85,JP,1690284883
449,fabero,42.7738,-6.6182,21.48,30,39,2.13,ES,1690284883
450,dabat,12.9842,37.765,17.8,70,92,3.85,ET,1690284884
451,arkhangel'sk,64.5401,40.5433,19.02,58,86,1.44,RU,1690284884
452,tobelo,1.7284,128.0095,26.9,82,79,2.71,ID,1690284885
453,zalingei,12.9096,23.4741,32.54,39,100,4.73,SD,1690284885
454,weno,7.4515,151.8468,27.97,83,100,2.57,FM,1690284885
455,casarza ligure,44.2719,9.447,30.06,65,34,3.13,IT,1690284886
456,sechura,-5.5569,-80.8222,20.65,81,8,3.48,PE,1690284886
457,copala,16.65,-98.9833,25.66,84,89,1.63,MX,1690284886
458,revelstoke,50.9832,-118.2023,12.01,94,75,2.06,CA,1690284887
459,heunghae,36.1125,129.3522,25.87,85,77,1.43,KR,1690284887
460,juli,-16.2167,-69.45,3.58,25,0,2.39,PE,1690284887
461,goba,7.0167,39.9833,17.95,71,67,2.89,ET,1690284887
462,mareeba,-17.0,145.4333,17.4,85,74,0.94,AU,1690284888
463,forbes,-33.3833,148.0167,8.29,70,0,1.46,AU,1690284882
464,mitu,1.1983,-70.1733,21.26,99,90,0.38,CO,1690284888
465,happy valley-goose bay,53.3168,-60.3315,16.17,82,75,1.03,CA,1690284889
466,kuragino,53.8975,92.6725,23.37,63,95,1.41,RU,1690284889
467,cascais,38.6979,-9.4215,25.28,53,20,8.23,PT,1690284889
468,suva,-18.1416,178.4415,22.71,83,75,1.03,FJ,1690284660
469,borogontsy,62.6683,131.1683,18.22,66,9,2.13,RU,1690284890
470,amursk,50.2261,136.8994,19.33,99,96,2.24,RU,1690284891
471,broome,42.2506,-75.833,18.34,89,100,1.54,US,1690284891
472,santa cruz,-17.8,-63.1667,17.03,45,75,6.69,BO,1690284892
473,sake,-1.5736,29.045,23.33,55,87,0.76,CD,1690284892
474,sisimiut,66.9395,-53.6735,6.79,80,51,5.72,GL,1690284892
475,piti village,13.4626,144.6933,27.49,91,40,6.17,GU,1690284893
476,gobabis,-22.45,18.9667,26.69,13,3,7.75,NA,1690284607
477,korla,41.7597,86.1469,36.72,15,72,4.49,CN,1690284893
478,aljezur,37.3191,-8.8033,23.15,55,2,6.87,PT,1690284894
479,sao joao da barra,-21.6403,-41.0511,21.05,81,3,2.67,BR,1690284894
480,eaglehawk,-36.7333,144.25,5.75,54,0,1.1,AU,1690284895
481,hinatuan,8.3722,126.3342,27.75,75,88,3.43,PH,1690284895
482,talara,-4.5772,-81.2719,20.79,83,9,6.38,PE,1690284896
483,arno,60.1167,18.6333,15.57,93,100,2.8,SE,1690284897
484,rabo de peixe,37.8,-25.5833,21.73,83,40,2.57,PT,1690284897
485,la punta,-33.1837,-66.3127,8.09,55,95,5.29,AR,1690284897
486,soio,-6.1349,12.3689,24.21,69,33,4.02,AO,1690284898
487,altar,30.7,-111.8167,31.68,35,42,1.33,MX,1690284898
488,saint-pierre,-21.3393,55.4781,25.32,73,0,4.12,RE,1690284898
489,hami,42.8,93.45,37.83,6,14,8.48,CN,1690284899
490,khartoum,15.5518,32.5324,36.91,28,100,6.03,SD,1690284899
491,orastie,45.8333,23.2,35.58,32,53,5.54,RO,1690284899
492,qianzhou,28.3167,109.7167,25.8,96,100,1.45,CN,1690284900
493,midvagur,62.0511,-7.1939,10.46,81,75,4.12,FO,1690284900
494,olinda,-8.0089,-34.8553,23.85,88,40,3.09,BR,1690284901
495,egersund,58.4513,5.9997,15.21,84,64,7.87,NO,1690284901
496,zuni pueblo,35.0725,-108.8506,17.35,48,22,1.58,US,1690284902
497,suntar,62.1444,117.6319,24.97,71,5,3.84,RU,1690284902
498,pass christian,30.3158,-89.2475,24.02,88,0,0.0,US,1690284902
499,shangzhi,45.2167,127.9667,21.32,94,100,2.37,CN,1690284903
500,yeniseysk,58.4497,92.1703,25.16,64,56,3.11,RU,1690284903
501,barranca,-10.75,-77.7667,19.11,83,94,3.58,PE,1690284904
502,paracuru,-3.41,-39.0306,26.73,54,24,6.48,BR,1690284904
503,san juan del sur,11.2529,-85.8705,26.69,79,63,9.97,NI,1690284904
504,labuan bajo,-8.4964,119.8877,24.67,76,72,1.84,ID,1690284905
505,fuglafjordur,62.244,-6.814,10.26,82,96,5.48,FO,1690284905
506,buta,2.7858,24.73,25.04,94,100,0.82,CD,1690284906
507,yuma,32.7253,-114.6244,34.43,28,15,2.07,US,1690284906
508,lompoc,34.6391,-120.4579,19.32,100,0,0.0,US,1690284907
509,konakovo,56.7,36.7667,24.24,46,43,1.84,RU,1690284907
510,nili,33.7218,66.1302,31.07,19,66,1.88,AF,1690284908
511,beau vallon,-20.4189,57.6953,26.13,69,40,4.12,MU,1690284908
512,montanha,-18.1269,-40.3633,22.55,76,72,3.19,BR,1690284908
513,port lincoln,-34.7333,135.8667,11.69,83,0,3.23,AU,1690284909
514,illizi,26.4833,8.4667,41.89,7,2,7.37,DZ,1690284910
515,parczew,51.6402,22.9006,27.34,36,98,5.28,PL,1690284910
516,pizarro,4.9533,-77.366,26.3,87,100,3.46,CO,1690284911
517,manismata,-2.4667,111.0333,25.26,82,43,2.26,ID,1690284912
518,sassandra,4.95,-6.0833,25.91,87,92,3.9,CI,1690284912
519,chiautla de tapia,18.2833,-98.6,19.22,96,95,0.91,MX,1690284913
520,conde,-7.2597,-34.9075,23.7,88,20,4.63,BR,1690284913
521,tommot,58.9564,126.2925,20.4,85,100,1.26,RU,1690284914
522,kirakira,-10.4544,161.9205,25.67,89,59,3.48,SB,1690284915
523,horta,38.5333,-28.6333,23.34,72,20,4.63,PT,1690284915
524,jiangyou,31.7667,104.7167,26.92,82,99,1.02,CN,1690284916
525,bodaybo,57.8506,114.1933,22.46,75,3,2.14,RU,1690284916
526,katabu,-4.9333,122.5167,23.39,83,60,3.39,ID,1690284916
527,niafunke,15.9322,-3.9906,35.69,39,43,2.89,ML,1690284917
528,box elder,41.5005,-112.8764,21.72,62,5,2.9,US,1690284918
529,caconda,-13.7333,15.0667,28.96,11,7,1.22,AO,1690284918
530,northam,51.0333,-4.2167,18.7,66,12,4.9,GB,1690284919
531,pinos,22.3,-101.5667,10.75,80,86,5.15,MX,1690284919
532,inhambane,-23.865,35.3833,20.82,58,65,5.26,MZ,1690284919
533,kilindoni,-7.9139,39.6668,25.6,70,10,6.46,TZ,1690284920
534,turinsk,58.0458,63.696,20.85,67,63,2.44,RU,1690284670
535,lakatoro,-16.0999,167.4164,23.38,89,98,6.25,VU,1690284921
536,eduardo castex,-35.915,-64.2945,4.95,93,94,6.07,AR,1690284921
537,barcelos,41.5388,-8.6151,23.84,39,2,4.76,PT,1690284810
538,arteaga,18.4667,-102.4167,17.48,98,100,1.44,MX,1690284923
539,muroto-misakicho,33.2833,134.15,27.38,83,1,2.74,JP,1690284758
540,krasnosel'skiy,53.2645,24.4301,25.98,46,99,5.65,BY,1690284923
541,uige,-7.6087,15.0613,23.01,68,75,4.12,AO,1690284924
542,guasdualito,7.2424,-70.7324,24.98,100,20,0.0,VE,1690284925
543,santiago de cao,-7.9589,-79.2392,21.07,88,75,3.09,PE,1690284925
544,hosdurga,13.7981,76.2861,21.65,84,100,7.43,IN,1690284925
545,dan sadau,11.2962,6.4952,29.92,57,19,3.7,NG,1690284925
546,margate,51.3813,1.3862,18.28,64,48,3.13,GB,1690284926
547,lerwick,60.1545,-1.1494,11.0,69,72,8.44,GB,1690284926
548,muynoq,43.7683,59.0214,35.38,27,4,7.65,UZ,1690284927
549,kuloy,61.0305,42.4925,17.65,61,53,2.5,RU,1690284927
550,torbat-e jam,35.244,60.6225,37.64,10,0,8.72,IR,1690284927
551,turaif,31.6725,38.6637,36.14,11,0,3.6,SA,1690284928
552,kidatu,-7.6992,36.9572,32.05,29,16,2.36,TZ,1690284928
553,merizo village,13.2658,144.6691,27.31,94,100,7.74,GU,1690284929
554,cidreira,-30.1811,-50.2056,17.37,96,96,2.19,BR,1690284929
555,tucurui,-3.7661,-49.6725,27.87,47,17,1.02,BR,1690284929
556,new norfolk,-42.7826,147.0587,11.51,87,100,2.08,AU,1690284930
557,mazagao,-0.115,-51.2894,26.03,70,33,0.98,BR,1690284930
558,el granada,37.5027,-122.4694,16.19,91,100,5.14,US,1690284930
559,amarkantak,22.6667,81.75,27.4,63,97,1.44,IN,1690284931
560,eyl,7.9803,49.8164,32.91,42,24,14.35,SO,1690284931
561,masterton,-40.9597,175.6575,7.71,98,34,1.75,NZ,1690284750
562,cururupu,-1.8283,-44.8683,29.34,65,11,1.61,BR,1690284932
563,port macquarie,-31.4333,152.9167,12.72,81,47,3.14,AU,1690284707
564,ubari,26.5921,12.7805,41.61,8,2,5.09,LY,1690284932
565,tromso,69.6496,18.957,20.21,63,40,5.14,NO,1690284933
566,yerofey pavlovich,53.9667,121.9667,17.91,81,96,1.5,RU,1690284933
567,tucuma,-0.1833,-50.05,27.31,75,16,1.8,BR,1690284933
568,aleksandrovsk-sakhalinskiy,50.8975,142.1561,17.31,96,85,2.37,RU,1690284934
569,perugorria,-29.3413,-58.6106,12.12,87,97,2.9,AR,1690284934
570,luleburgaz,41.4039,27.3592,37.04,20,0,4.8,TR,1690284906
571,aral,40.5156,81.2636,34.69,19,97,6.65,CN,1690284904
572,jaggayyapeta,16.9,80.1,27.05,81,100,7.59,IN,1690284935
573,pointe-noire,-4.7761,11.8635,25.04,69,20,3.09,CG,1690284648
574,titao,13.7667,-2.0667,32.46,46,40,2.29,BF,1690284936
575,leava,-14.3,-178.1667,26.05,78,100,7.91,WF,1690284936
576,isangel,-19.55,169.2667,21.0,67,100,7.27,VU,1690284936
577,esil,51.9556,66.4042,30.1,25,77,0.6,KZ,1690284937
578,susa,35.8254,10.637,46.87,8,0,9.26,TN,1690284824
579,itaituba,-4.2761,-55.9836,24.09,83,4,0.0,BR,1690284937
580,wuxi,31.5689,120.2886,29.43,78,100,4.99,CN,1690284101
581,charcas,23.1333,-101.1167,13.53,88,62,2.57,MX,1690284938
582,hammerfest,70.6634,23.6821,18.25,63,20,3.6,NO,1690284938
